{
  "id": 1,
  "uuid": "550e8400-e29b-41d4-a716-446655440001",
  "name": "Main Portfolio - Al-Rashid Real Estate Company",
  "code": "PORT-001-01",
  "type": "residential",
  "description": "Portfolio 1 for Al-Rashid Real Estate Company",
  "area": 25000.50,
  "active": true,
  "ownership": {
    "uuid": "550e8400-e29b-41d4-a716-446655440000",
    "name": "Al-Rashid Real Estate Company"
  },
  "parent": null,
  "children": [],
  "locations": [
    {
      "id": 1,
      "street": "King Fahd Road, 123",
      "city": "Riyadh",
      "state": "Riyadh Province",
      "country": "Saudi Arabia",
      "zip_code": "12345",
      "latitude": 24.7136,
      "longitude": 46.6753,
      "primary": true
    },
    {
      "id": 2,
      "street": "Prince Sultan Road, 456",
      "city": "Riyadh",
      "state": "Riyadh Province",
      "country": "Saudi Arabia",
      "zip_code": "12346",
      "latitude": 24.7140,
      "longitude": 46.6760,
      "primary": false
    }
  ],
  "buildings": [
    {
      "id": 1,
      "uuid": "660e8400-e29b-41d4-a716-446655440001",
      "name": "Tower A",
      "code": "BLD-001-01",
      "type": "residential",
      "description": "Building 1 in Main Portfolio - Al-Rashid Real Estate Company",
      "street": "King Fahd Road, 123",
      "city": "Riyadh",
      "state": "Riyadh Province",
      "country": "Saudi Arabia",
      "zip_code": "12345",
      "latitude": 24.7136,
      "longitude": 46.6753,
      "floors_count": 3,
      "year": 2020,
      "active": true,
      "ownership": {
        "uuid": "550e8400-e29b-41d4-a716-446655440000",
        "name": "Al-Rashid Real Estate Company"
      },
      "portfolio": {
        "uuid": "550e8400-e29b-41d4-a716-446655440001",
        "name": "Main Portfolio - Al-Rashid Real Estate Company",
        "code": "PORT-001-01"
      },
      "parent": null,
      "children": [],
      "floors": [],
      "floors_count": null,
      "children_count": null,
      "created_at": "2025-01-15T10:30:00.000000Z",
      "updated_at": "2025-01-15T10:30:00.000000Z"
    }
  ],
  "buildings_count": 3,
  "children_count": 0,
  "created_at": "2025-01-15T10:00:00.000000Z",
  "updated_at": "2025-01-15T10:00:00.000000Z"
}

